[
    {
        "address": "Regent Street City Centre",
        "area": "pusat",
        "food": "italia",
        "location": "52.20103,0.126023",
        "phone": "01223 323737",
        "pricerange": "murah",
        "postcode": "C.B 2, 1 A.B",
        "type": "restoran",
        "id": "19210",
        "name": "pizza hut city centre"
    },
    {
        "address": "Finders Corner Newmarket Road",
        "area": "timur",
        "food": "internasional",
        "location": "52.21768,0.224907",
        "phone": "01223 812660",
        "pricerange": "murah",
        "postcode": "C.B 25, 9 A.Q",
        "type": "restoran",
        "id": "30650",
        "name": "the missing sock"
    },
    {
        "address": "106 Regent Street City Centre",
        "area": "pusat",
        "food": "india",
        "location": "52.200187,0.126407",
        "phone": "01223 302330",
        "pricerange": "mahal",
        "postcode": "C.B 2, 1 D.P",
        "type": "restoran",
        "id": "19214",
        "name": "curry garden"
    },
    {
        "address": "82 Cherry Hinton Road Cherry Hinton",
        "area": "selatan",
        "food": "cina",
        "location": "52.188528,0.140627",
        "phone": "01223 244149",
        "pricerange": "mahal",
        "postcode": "C.B 1, 7 A.G",
        "type": "restoran",
        "id": "19192",
        "name": "the good luck chinese food takeaway"
    },
    {
        "address": "G4 Cambridge Leisure Park Clifton Way Cherry Hinton",
        "area": "selatan",
        "food": "italia",
        "location": "52.190176,0.13699",
        "phone": "01223 323737",
        "pricerange": "menengah",
        "postcode": "C.B 1, 7 D.Y",
        "type": "restoran",
        "id": "19196",
        "name": "pizza hut cherry hinton"
    },
    {
        "address": "64 Cherry Hinton Road Cherry Hinton",
        "area": "selatan",
        "food": "india",
        "location": "52.188747,0.138941",
        "phone": "01223 412299",
        "pricerange": "mahal",
        "postcode": "C.B 1, 7 A.A",
        "type": "restoran",
        "id": "19191",
        "name": "taj tandoori"
    },
    {
        "address": "152 - 154 Hills Road",
        "area": "selatan",
        "food": "eropa modern",
        "location": "52.18889,0.13589",
        "phone": "01223 413000",
        "pricerange": "menengah",
        "postcode": "C.B 2, 8 P.B",
        "type": "restoran",
        "id": "14731",
        "name": "restaurant alimentum"
    },
    {
        "address": "529 Newmarket Road Fen Ditton",
        "area": "timur",
        "food": "cina",
        "location": "52.212992,0.157569",
        "phone": "01223 248882",
        "pricerange": "mahal",
        "postcode": "C.B 5, 8 P.A",
        "type": "restoran",
        "id": "19273",
        "name": "yu garden"
    },
    {
        "address": "Market Hill City Centre",
        "area": "pusat",
        "food": "italia",
        "location": "52.205442,0.119706",
        "phone": "01223 352607",
        "pricerange": "mahal",
        "postcode": "C.B 2, 3 N.J",
        "type": "restoran",
        "id": "19240",
        "name": "stazione restaurant and coffee bar"
    },
    {
        "address": "451 Newmarket Road Fen Ditton",
        "area": "timur",
        "food": "india",
        "location": "52.213072,0.149771",
        "phone": "01223 566388",
        "pricerange": "menengah",
        "postcode": "C.B 5, 8 J.J",
        "type": "restoran",
        "id": "19270",
        "name": "curry prince"
    },
    {
        "address": "Regent Street City Centre",
        "area": "pusat",
        "food": "cina",
        "location": "52.201743,0.124843",
        "phone": "01223 361763",
        "pricerange": "murah",
        "postcode": "C.B 2, 1 D.B",
        "type": "restoran",
        "id": "19212",
        "name": "charlie chan"
    },
    {
        "address": "Free School Lane City Centre",
        "area": "pusat",
        "food": "eropa",
        "location": "52.203708,0.119082",
        "phone": "01223 368786",
        "pricerange": "mahal",
        "postcode": "C.B 2, 3 R.H",
        "type": "restoran",
        "id": "19245",
        "name": "eraina"
    },
    {
        "address": "Regent Street City Centre",
        "area": "pusat",
        "food": "italia",
        "location": "52.201743,0.124843",
        "phone": "01223 324033",
        "pricerange": "menengah",
        "postcode": "C.B 2, 1 D.B",
        "type": "restoran",
        "id": "19213",
        "name": "pizza express"
    },
    {
        "address": "De Vere University Arms Regent Street City Centre",
        "area": "pusat",
        "food": "inggris",
        "location": "52.20103,0.126023",
        "phone": "01223 337766",
        "pricerange": "menengah",
        "postcode": "C.B 2, 1 A.B",
        "type": "restoran",
        "id": "19211",
        "name": "restaurant one seven"
    },
    {
        "address": "12 Bridge Street City Centre",
        "area": "pusat",
        "food": "italia",
        "location": "52.209028,0.118296",
        "phone": "01223 364917",
        "pricerange": "murah",
        "postcode": "C.B 2, 1 U.F",
        "type": "restoran",
        "id": "19229",
        "name": "ask"
    },
    {
        "address": "11 Peas Hill City Centre",
        "area": "pusat",
        "food": "cina",
        "location": "52.204453,0.118693",
        "phone": "01223 566188",
        "pricerange": "menengah",
        "postcode": "C.B 2, 3 P.P",
        "type": "restoran",
        "id": "19242",
        "name": "jinling noodle bar"
    },
    {
        "address": "83 Regent Street",
        "area": "pusat",
        "food": "eropa modern",
        "location": "52.2002,0.1268",
        "phone": "01223 356666",
        "pricerange": "menengah",
        "postcode": "C.B 2, 1 A.W",
        "type": "restoran",
        "id": "3697",
        "name": "de luca cucina and bar"
    },
    {
        "address": "2 Sturton Street City Centre",
        "area": "pusat",
        "food": "pub gastronomi",
        "location": "52.202449,0.141062",
        "phone": "01223 306306",
        "pricerange": "mahal",
        "postcode": "C.B 1, 2 Q.A",
        "type": "restoran",
        "id": "19188",
        "name": "backstreet bistro"
    },
    {
        "address": "68 Histon Road Chesterton",
        "area": "barat",
        "food": "india",
        "location": "52.215486,0.111167",
        "phone": "01223 506055",
        "pricerange": "mahal",
        "postcode": "C.B 4, 3 L.E",
        "type": "restoran",
        "id": "19266",
        "name": "tandoori palace"
    },
    {
        "address": "Doubletree by Hilton Cambridge Granta Place Mill Lane",
        "area": "pusat",
        "food": "eropa modern",
        "location": "52.20025,0.11659",
        "phone": "01223 259988",
        "pricerange": "menengah",
        "postcode": "C.B 2, 1 R.T",
        "type": "restoran",
        "id": "10347",
        "name": "riverside brasserie"
    },
    {
        "address": "74 Mill Road City Centre",
        "area": "pusat",
        "food": "india",
        "location": "52.200422,0.135784",
        "phone": "01223 323639",
        "pricerange": "murah",
        "postcode": "C.B 1, 2 A.S",
        "type": "restoran",
        "id": "19180",
        "name": "kohinoor"
    },
    {
        "address": "2G Cambridge Leisure Park Cherry Hinton Road Cherry Hinton",
        "area": "selatan",
        "food": "meksiko",
        "location": "52.190176,0.13699",
        "phone": "01223 400170",
        "pricerange": "mahal",
        "postcode": "C.B 1, 7 D.Y",
        "type": "restoran",
        "id": "19194",
        "name": "chiquito restaurant bar"
    },
    {
        "address": "21 - 24 Northampton Road",
        "area": "barat",
        "food": "italia",
        "location": "52.21032,0.11367",
        "phone": "01799 521260",
        "pricerange": "menengah",
        "postcode": "C.B 3, 0 A.D",
        "type": "restoran",
        "id": "12700",
        "name": "prezzo"
    },
    {
        "address": "88 Mill Road City Centre",
        "area": "pusat",
        "food": "cina",
        "location": "52.199332,0.138395",
        "phone": "01223 367755",
        "pricerange": "murah",
        "postcode": "C.B 1, 2 B.D",
        "type": "restoran",
        "id": "19185",
        "name": "rice house"
    },
    {
        "address": "59 Hills Road City Centre",
        "area": "pusat",
        "food": "lebanon",
        "location": "52.195416,0.13114",
        "phone": "01462 432565",
        "pricerange": "menengah",
        "postcode": "C.B 2, 1 N.T",
        "type": "restoran",
        "id": "19221",
        "name": "ali baba"
    },
    {
        "address": "35 Saint Andrews Street City Centre",
        "area": "pusat",
        "food": "internasional",
        "location": "52.202793,0.123488",
        "phone": "01223 356060",
        "pricerange": "menengah",
        "postcode": "C.B 2, 3 A.R",
        "type": "restoran",
        "id": "19235",
        "name": "the varsity restaurant"
    },
    {
        "address": "40270 King Street City Centre",
        "area": "pusat",
        "food": "eropa modern",
        "location": "52.207312,0.124201",
        "phone": "01223 505015",
        "pricerange": "mahal",
        "postcode": "C.B 1, 1 L.N",
        "type": "restoran",
        "id": "19177",
        "name": "darrys cookhouse and wine shop"
    },
    {
        "address": "Mill Road City Centre",
        "area": "pusat",
        "food": "india",
        "location": "52.199289,0.13974",
        "phone": "01223 329432",
        "pricerange": "mahal",
        "postcode": "C.B 1, 2 A.Z",
        "type": "restoran",
        "id": "19182",
        "name": "the golden curry"
    },
    {
        "address": "71 Castle Street City Centre",
        "area": "barat",
        "food": "india",
        "location": "52.212444,0.112823",
        "phone": "01223 366668",
        "pricerange": "mahal",
        "postcode": "C.B 3, 0 A.H",
        "type": "restoran",
        "id": "19249",
        "name": "cocum"
    },
    {
        "address": "St. Michael's Church Trinity Street City Centre",
        "area": "pusat",
        "food": "eropa",
        "location": "52.20608,0.118215",
        "phone": "01223 309147",
        "pricerange": "mahal",
        "postcode": "C.B 2, 1 S.U",
        "type": "restoran",
        "id": "19227",
        "name": "michaelhouse cafe"
    },
    {
        "address": "37 Newnham Road Newnham",
        "area": "barat",
        "food": "india",
        "location": "52.199012,0.113196",
        "phone": "01223 302800",
        "pricerange": "mahal",
        "postcode": "C.B 3, 9 E.Y",
        "type": "restoran",
        "id": "19255",
        "name": "rice boat"
    },
    {
        "address": "15 - 19 Trumpington Street",
        "area": "pusat",
        "food": "eropa",
        "location": "52.19934,0.12146",
        "phone": "01223 227330",
        "pricerange": "menengah",
        "postcode": "C.B 2, 1 Q.A",
        "type": "restoran",
        "id": "4607",
        "name": "hotel du vin and bistro"
    },
    {
        "address": "41518 Castle Street City Centre",
        "area": "barat",
        "food": "india",
        "location": "52.212444,0.112823",
        "phone": "01223 358399",
        "pricerange": "mahal",
        "postcode": "C.B 3, 0 A.H",
        "type": "restoran",
        "id": "19250",
        "name": "maharajah tandoori restaurant"
    },
    {
        "address": "Crowne Plaza Hotel 20 Downing Street",
        "area": "pusat",
        "food": "internasional",
        "location": "52.20342,0.12171",
        "phone": "08719 429180",
        "pricerange": "menengah",
        "postcode": "C.B 2, 3 D.T",
        "type": "restoran",
        "id": "14742",
        "name": "bloomsbury restaurant"
    },
    {
        "address": "17 Magdalene Street City Centre",
        "area": "barat",
        "food": "vietnam",
        "location": "52.210226,0.115646",
        "phone": "01223 362456",
        "pricerange": "murah",
        "postcode": "C.B 3, 0 A.F",
        "type": "restoran",
        "id": "19248",
        "name": "thanh binh"
    },
    {
        "address": "14 -16 Bridge Street",
        "area": "pusat",
        "food": "spanyol",
        "location": "52.20903,0.1183",
        "phone": "01223 464630",
        "pricerange": "menengah",
        "postcode": "C.B 2, 1 U.F",
        "type": "restoran",
        "id": "12566",
        "name": "la tasca"
    },
    {
        "address": "20 Milton Road Chesterton",
        "area": "utara",
        "food": "italia",
        "location": "52.215311,0.12593",
        "phone": "01223 351707",
        "pricerange": "murah",
        "postcode": "C.B 4, 1 J.Y",
        "type": "restoran",
        "id": "19259",
        "name": "da vinci pizzeria"
    },
    {
        "address": "22 Chesterton Road Chesterton",
        "area": "utara",
        "food": "perancis",
        "location": "52.213742,0.1242",
        "phone": "01223 351880",
        "pricerange": "mahal",
        "postcode": "C.B 4, 3 A.X",
        "type": "restoran",
        "id": "19264",
        "name": "restaurant two two"
    },
    {
        "address": "12 St. Johns Street City Centre",
        "area": "pusat",
        "food": "cina",
        "location": "52.208055,0.118397",
        "phone": "null",
        "pricerange": "mahal",
        "postcode": "C.B 2, 1 T.W",
        "type": "restoran",
        "id": "19228",
        "name": "ugly duckling"
    },
    {
        "address": "36 Saint Andrews Street",
        "area": "pusat",
        "food": "jepang",
        "location": "52.203,0.12375",
        "phone": "01223 462354",
        "pricerange": "mahal",
        "postcode": "C.B 2, 3 A.R",
        "type": "restoran",
        "id": "12638",
        "name": "wagamama"
    },
    {
        "address": "12 Norfolk Street City Centre",
        "area": "pusat",
        "food": "cina",
        "location": "52.204609,0.137976",
        "phone": "01223 350420",
        "pricerange": "menengah",
        "postcode": "C.B 1, 2 L.F",
        "type": "restoran",
        "id": "19186",
        "name": "lan hong house"
    },
    {
        "address": "Cambridge Leisure Park Clifton Way",
        "area": "selatan",
        "food": "portugal",
        "location": "52.19017,0.13699",
        "phone": "01223 327908",
        "pricerange": "murah",
        "postcode": "C.B 1, 7 D.Y",
        "type": "restoran",
        "id": "12238",
        "name": "nandos"
    },
    {
        "address": "6 Lensfield Road",
        "area": "pusat",
        "food": "inggris",
        "location": "52.1987,0.12578",
        "phone": "01223 323361",
        "pricerange": "menengah",
        "postcode": "C.B 2, 1 E.G",
        "type": "restoran",
        "id": "13071",
        "name": "the oak bistro"
    },
    {
        "address": "4 Kings Parade City Centre",
        "area": "pusat",
        "food": "inggris",
        "location": "52.204387,0.117841",
        "phone": "01223 365068",
        "pricerange": "menengah",
        "postcode": "C.B 2, 1 S.J",
        "type": "restoran",
        "id": "19226",
        "name": "the copper kettle"
    },
    {
        "address": "Cambridge Leisure Park Clifton Way Cherry Hinton",
        "area": "selatan",
        "food": "cina",
        "location": "52.190176,0.13699",
        "phone": "01223 244277",
        "pricerange": "murah",
        "postcode": "C.B 1, 7 D.Y",
        "type": "restoran",
        "id": "19197",
        "name": "the lucky star"
    },
    {
        "address": "51 Trumpington Street City Centre",
        "area": "pusat",
        "food": "inggris",
        "location": "52.202598,0.118342",
        "phone": "01223 352500",
        "pricerange": "mahal",
        "postcode": "C.B 2, 1 R.G",
        "type": "restoran",
        "id": "19224",
        "name": "fitzbillies restaurant"
    },
    {
        "address": "108 Regent Street City Centre",
        "area": "pusat",
        "food": "korea",
        "location": "52.200187,0.126407",
        "phone": "01223 308681",
        "pricerange": "mahal",
        "postcode": "C.B 2, 1 D.P",
        "type": "restoran",
        "id": "19216",
        "name": "little seoul"
    },
    {
        "address": "196 Mill Road City Centre",
        "area": "pusat",
        "food": "turki",
        "location": "52.197349,0.145075",
        "phone": "null",
        "pricerange": "mahal",
        "postcode": "C.B 1, 3 N.F",
        "type": "restoran",
        "id": "19189",
        "name": "meze bar restaurant"
    },
    {
        "address": "40210 Millers Yard City Centre",
        "area": "pusat",
        "food": "oriental asia",
        "location": "52.201423,0.116661",
        "phone": "01223 363471",
        "pricerange": "murah",
        "postcode": "C.B 2, 1 R.Q",
        "type": "restoran",
        "id": "19225",
        "name": "dojo noodle bar"
    },
    {
        "address": "15 Magdalene Street City Centre",
        "area": "barat",
        "food": "italia",
        "location": "52.210226,0.115646",
        "phone": "01223 315232",
        "pricerange": "murah",
        "postcode": "C.B 3, 0 A.F",
        "type": "restoran",
        "id": "19247",
        "name": "la margherita"
    },
    {
        "address": "40428 King Street City Centre",
        "area": "pusat",
        "food": "oriental asia",
        "location": "52.207446,0.122788",
        "phone": "01223 518111",
        "pricerange": "menengah",
        "postcode": "C.B 1, 1 L.H",
        "type": "restoran",
        "id": "19175",
        "name": "yippee noodle bar"
    },
    {
        "address": "7 Milton Road Chesterton",
        "area": "utara",
        "food": "india",
        "location": "52.215157,0.125015",
        "phone": "01223 360966",
        "pricerange": "menengah",
        "postcode": "C.B 4, 1 U.Y",
        "type": "restoran",
        "id": "19263",
        "name": "the nirala"
    },
    {
        "address": "183 East Road City Centre",
        "area": "pusat",
        "food": "inggris",
        "location": "52.204703,0.133238",
        "phone": "01223 302010",
        "pricerange": "menengah",
        "postcode": "C.B 1, 1 B.G",
        "type": "restoran",
        "id": "19171",
        "name": "cotto"
    },
    {
        "address": "21-24 Northampton Street",
        "area": "barat",
        "food": "inggris",
        "location": "52.21031,0.11381",
        "phone": "01223 353110",
        "pricerange": "menengah",
        "postcode": "C.B 3, 0 A.D",
        "type": "restoran",
        "id": "14810",
        "name": "saint johns chop house"
    },
    {
        "address": "Cambridge Retail Park Newmarket Road Fen Ditton",
        "area": "timur",
        "food": "italia",
        "location": "52.209742,0.146975",
        "phone": "01223 323737",
        "pricerange": "menengah",
        "postcode": "C.B 5, 8 W.R",
        "type": "restoran",
        "id": "19275",
        "name": "pizza hut fen ditton"
    },
    {
        "address": "12 Lensfield Road City Centre",
        "area": "pusat",
        "food": "cina",
        "location": "52.198696,0.12578",
        "phone": "01842 753771",
        "pricerange": "murah",
        "postcode": "C.B 2, 1 E.G",
        "type": "restoran",
        "id": "19219",
        "name": "golden house"
    },
    {
        "address": "86 Regent Street City Centre",
        "area": "pusat",
        "food": "oriental asia",
        "location": "52.200187,0.126407",
        "phone": "01223 307581",
        "pricerange": "murah",
        "postcode": "C.B 2, 1 D.P",
        "type": "restoran",
        "id": "19215",
        "name": "j restaurant"
    },
    {
        "address": "33 Bridge Street",
        "area": "pusat",
        "food": "eropa",
        "location": "52.20951,0.11669",
        "phone": "01223 362054",
        "pricerange": "menengah",
        "postcode": "C.B 2, 1 U.W",
        "type": "restoran",
        "id": "6780",
        "name": "galleria"
    },
    {
        "address": "Corn Exchange Street",
        "area": "pusat",
        "food": "pub gastronomi",
        "location": "52.204424,0.12046",
        "phone": "01223 308871",
        "pricerange": "menengah",
        "postcode": "C.B 2, 3 Q.F",
        "type": "restoran",
        "id": "31390",
        "name": "the cow pizza kitchen and bar"
    },
    {
        "address": "100 Mill Road City Centre",
        "area": "pusat",
        "food": "afrika",
        "location": "52.199332,0.138395",
        "phone": "01223 367660",
        "pricerange": "mahal",
        "postcode": "C.B 1, 2 B.D",
        "type": "restoran",
        "id": "19183",
        "name": "bedouin"
    },
    {
        "address": "2 Rose Crescent City Centre",
        "area": "pusat",
        "food": "mediterania",
        "location": "52.206098,0.118713",
        "phone": "01223 356354",
        "pricerange": "murah",
        "postcode": "C.B 2, 3 L.L",
        "type": "restoran",
        "id": "19238",
        "name": "the gardenia"
    },
    {
        "address": "47-53 Regent Street",
        "area": "pusat",
        "food": "italia",
        "location": "52.201116,0.125712",
        "phone": "01223 365599",
        "pricerange": "murah",
        "postcode": "C.B 2, 1 A.B",
        "type": "restoran",
        "id": "29652",
        "name": "zizzi cambridge"
    },
    {
        "address": "Newmarket Road Fen Ditton",
        "area": "timur",
        "food": "india",
        "location": "52.212992,0.157569",
        "phone": "01223 577786",
        "pricerange": "mahal",
        "postcode": "C.B 5, 8 P.A",
        "type": "restoran",
        "id": "19272",
        "name": "pipasha restaurant"
    },
    {
        "address": "33-34 Saint Andrews Street",
        "area": "pusat",
        "food": "portugal",
        "location": "52.203,0.12375",
        "phone": "01223 327908",
        "pricerange": "murah",
        "postcode": "C.B 2, 3 A.R",
        "type": "restoran",
        "id": "12237",
        "name": "nandos city centre"
    },
    {
        "address": "Victoria Avenue Chesterton",
        "area": "utara",
        "food": "india",
        "location": "52.213853,0.125509",
        "phone": "01733 553355",
        "pricerange": "murah",
        "postcode": "C.B 4, 1 E.H",
        "type": "restoran",
        "id": "19257",
        "name": "royal spice"
    },
    {
        "address": "Milton Road Chesterton",
        "area": "utara",
        "food": "cina",
        "location": "52.215311,0.12593",
        "phone": "01223 568988",
        "pricerange": "mahal",
        "postcode": "C.B 4, 1 J.Y",
        "type": "restoran",
        "id": "19260",
        "name": "hakka"
    },
    {
        "address": "4 - 6 Rose Crescent",
        "area": "pusat",
        "food": "spanyol",
        "location": "52.206098,0.118713",
        "phone": "01223 464550",
        "pricerange": "murah",
        "postcode": "C.B 2, 3 L.L",
        "type": "restoran",
        "id": "19237",
        "name": "la raza"
    },
    {
        "address": "72 Regent Street City Centre",
        "area": "pusat",
        "food": "india",
        "location": "52.200187,0.126407",
        "phone": "01223 353942",
        "pricerange": "murah",
        "postcode": "C.B 2, 1 D.P",
        "type": "restoran",
        "id": "19218",
        "name": "the gandhi"
    },
    {
        "address": "191 Histon Road Chesterton",
        "area": "utara",
        "food": "cina",
        "location": "52.220757,0.111564",
        "phone": "01223 350688",
        "pricerange": "menengah",
        "postcode": "C.B 4, 3 H.L",
        "type": "restoran",
        "id": "19265",
        "name": "golden wok"
    },
    {
        "address": "205 Victoria Road Chesterton",
        "area": "barat",
        "food": "india",
        "location": "52.215077,0.112421",
        "phone": "01223 727410",
        "pricerange": "menengah",
        "postcode": "C.B 4, 3 L.F",
        "type": "restoran",
        "id": "19267",
        "name": "meghna"
    },
    {
        "address": "Hills Road City Centre",
        "area": "pusat",
        "food": "india",
        "location": "52.196862,0.129248",
        "phone": "01223 354679",
        "pricerange": "mahal",
        "postcode": "C.B 2, 1 L.A",
        "type": "restoran",
        "id": "19220",
        "name": "saffron brasserie"
    },
    {
        "address": "Thompsons Lane Fen Ditton",
        "area": "pusat",
        "food": "mediterania",
        "location": "52.210012999999996,0.118007",
        "phone": "01223 362525",
        "pricerange": "mahal",
        "postcode": "C.B 5, 8 A.Q",
        "type": "restoran",
        "id": "19268",
        "name": "la mimosa"
    },
    {
        "address": "39 Burleigh Street City Centre",
        "area": "pusat",
        "food": "cina",
        "location": "52.206111,0.132969",
        "phone": "01223 301761",
        "pricerange": "menengah",
        "postcode": "C.B 1, 1 D.G",
        "type": "restoran",
        "id": "19173",
        "name": "shanghai family restaurant"
    },
    {
        "address": "The Little Rose 37 Trumpington Street",
        "area": "pusat",
        "food": "makanan laut",
        "location": "52.200693,0.119744",
        "phone": "01223 362433",
        "pricerange": "mahal",
        "postcode": "C.B 2, 1 Q.Y",
        "type": "restoran",
        "id": "19223",
        "name": "loch fyne"
    },
    {
        "address": "3 - 5 Millers Yard Mill Lane",
        "area": "pusat",
        "food": "india",
        "location": "52.20143,0.11664",
        "phone": "01223 360409",
        "pricerange": "murah",
        "postcode": "C.B 2, 1 R.Q",
        "type": "restoran",
        "id": "15275",
        "name": "mahal of cambridge"
    },
    {
        "address": "Jesus Lane Fen Ditton",
        "area": "pusat",
        "food": "italia",
        "location": "52.208252,0.119957",
        "phone": "01223 324033",
        "pricerange": "menengah",
        "postcode": "C.B 5, 8 B.A",
        "type": "restoran",
        "id": "19269",
        "name": "pizza express Fen Ditton"
    },
    {
        "address": "35 Newnham Road Newnham",
        "area": "barat",
        "food": "thailand",
        "location": "52.199012,0.113196",
        "phone": "01223 323178",
        "pricerange": "mahal",
        "postcode": "C.B 3, 9 E.Y",
        "type": "restoran",
        "id": "19256",
        "name": "sala thong"
    },
    {
        "address": "Cambridge City Football Club Milton Road Chesterton",
        "area": "utara",
        "food": "null",
        "location": "52.215157,0.125015",
        "phone": "01223 363270",
        "pricerange": "mahal",
        "postcode": "C.B 4, 1 U.Y",
        "type": "restoran",
        "id": "19262",
        "name": "city stop restaurant"
    },
    {
        "address": "169 High Street Chesterton Chesterton",
        "area": "utara",
        "food": "oriental asia",
        "location": "52.218164,0.143209",
        "phone": "01223 356555",
        "pricerange": "mahal",
        "postcode": "C.B 4, 1 N.L",
        "type": "restoran",
        "id": "19261",
        "name": "saigon city"
    },
    {
        "address": "10 Homerton Street City Centre",
        "area": "selatan",
        "food": "cina",
        "location": "52.189484,0.135465",
        "phone": "01223 354755",
        "pricerange": "mahal",
        "postcode": "C.B 2, 8 N.X",
        "type": "restoran",
        "id": "19246",
        "name": "peking restaurant"
    },
    {
        "address": "Cambridge Leisure Park Clifton Way Cherry Hinton",
        "area": "selatan",
        "food": "italia",
        "location": "52.190176,0.13699",
        "phone": "01223 412430",
        "pricerange": "mahal",
        "postcode": "C.B 1, 7 D.Y",
        "type": "restoran",
        "id": "19195",
        "name": "frankie and bennys"
    },
    {
        "address": "Hotel Felix Whitehouse Lane Huntingdon Road",
        "area": "barat",
        "food": "inggris",
        "location": "52.22414,0.09194",
        "phone": "01223 277977",
        "pricerange": "mahal",
        "postcode": "C.B 3, 0 L.X",
        "type": "restoran",
        "id": "7492",
        "name": "graffiti"
    },
    {
        "address": "31 Newnham Road Newnham",
        "area": "barat",
        "food": "india",
        "location": "52.199012,0.113196",
        "phone": "01223 461661",
        "pricerange": "mahal",
        "postcode": "C.B 3, 9 E.Y",
        "type": "restoran",
        "id": "19254",
        "name": "india house"
    },
    {
        "address": "Cambridge Lodge Hotel 139 Huntingdon Road City Centre",
        "area": "barat",
        "food": "eropa",
        "location": "52.217736,0.102505",
        "phone": "01223 355166",
        "pricerange": "mahal",
        "postcode": "C.B 3, 0 D.Q",
        "type": "restoran",
        "id": "19252",
        "name": "cambridge lodge restaurant"
    },
    {
        "address": "Grafton Hotel 619 Newmarket Road Fen Ditton",
        "area": "timur",
        "food": "inggris",
        "location": "52.212992,0.157569",
        "phone": "01223 241387",
        "pricerange": "mahal",
        "postcode": "C.B 5, 8 P.A",
        "type": "restoran",
        "id": "19271",
        "name": "grafton hotel restaurant"
    },
    {
        "address": "66 Chesterton Road Chesterton",
        "area": "utara",
        "food": "cina",
        "location": "52.214531,0.127298",
        "phone": "01223 366552",
        "pricerange": "mahal",
        "postcode": "C.B 4, 1 E.P",
        "type": "restoran",
        "id": "19258",
        "name": "the hotpot"
    },
    {
        "address": "Quayside Off Bridge Street",
        "area": "pusat",
        "food": "eropa modern",
        "location": "52.20984,0.11793",
        "phone": "01223 307030",
        "pricerange": "murah",
        "postcode": "C.B 5, 8 A.Q",
        "type": "restoran",
        "id": "7236",
        "name": "the river bar steakhouse and grill"
    },
    {
        "address": "54 King Street City Centre",
        "area": "pusat",
        "food": "italia",
        "location": "52.207312,0.124201",
        "phone": "01223 355711",
        "pricerange": "mahal",
        "postcode": "C.B 1, 1 L.N",
        "type": "restoran",
        "id": "19176",
        "name": "clowns cafe"
    },
    {
        "address": "30 Bridge Street City Centre",
        "area": "pusat",
        "food": "turki",
        "location": "52.209632,0.117213",
        "phone": "01223 362372",
        "pricerange": "menengah",
        "postcode": "C.B 2, 1 U.J",
        "type": "restoran",
        "id": "19232",
        "name": "anatolia"
    },
    {
        "address": "8 Norfolk Street City Centre",
        "area": "pusat",
        "food": "india",
        "location": "52.204609,0.137976",
        "phone": "01223 355012",
        "pricerange": "mahal",
        "postcode": "C.B 1, 2 L.F",
        "type": "restoran",
        "id": "19187",
        "name": "panahar"
    },
    {
        "address": "Napier Street City Centre",
        "area": "pusat",
        "food": "cina",
        "location": "52.207702,0.133982",
        "phone": "01223 357187",
        "pricerange": "mahal",
        "postcode": "C.B 1, 1 H.R",
        "type": "restoran",
        "id": "19174",
        "name": "tang chinese"
    },
    {
        "address": "34 - 35 Green Street",
        "area": "pusat",
        "food": "pub gastronomi",
        "location": "52.20683,0.1192",
        "phone": "null",
        "pricerange": "mahal",
        "postcode": "C.B 2, 3 J.U",
        "type": "restoran",
        "id": "12482",
        "name": "the slug and lettuce"
    },
    {
        "address": "5 Jordans Yard Bridge Street City Centre",
        "area": "pusat",
        "food": "india",
        "location": "52.209003,0.118661",
        "phone": "01223 324351",
        "pricerange": "mahal",
        "postcode": "C.B 2, 1 U.G",
        "type": "restoran",
        "id": "19231",
        "name": "curry king"
    },
    {
        "address": "Huntingdon Road City Centre",
        "area": "barat",
        "food": "inggris",
        "location": "52.214201,0.108588",
        "phone": "01223 276182",
        "pricerange": "mahal",
        "postcode": "C.B 3, 0 D.F",
        "type": "restoran",
        "id": "19251",
        "name": "travellers rest"
    },
    {
        "address": "106 Mill Road City Centre",
        "area": "pusat",
        "food": "india",
        "location": "52.199332,0.138395",
        "phone": "01223 351027",
        "pricerange": "mahal",
        "postcode": "C.B 1, 2 B.D",
        "type": "restoran",
        "id": "19184",
        "name": "curry queen"
    },
    {
        "address": "290 Mill Road City Centre",
        "area": "timur",
        "food": "pub gastronomi",
        "location": "52.196967,0.149286",
        "phone": "01223 247877",
        "pricerange": "mahal",
        "postcode": "C.B 1, 3 N.L",
        "type": "restoran",
        "id": "19190",
        "name": "royal standard"
    },
    {
        "address": "7 Barnwell Road Fen Ditton",
        "area": "timur",
        "food": "india",
        "location": "52.211144,0.163247",
        "phone": "01223 244955",
        "pricerange": "menengah",
        "postcode": "C.B 5, 8 R.G",
        "type": "restoran",
        "id": "19274",
        "name": "rajmahal"
    },
    {
        "address": "21 Burleigh Street City Centre",
        "area": "pusat",
        "food": "cina",
        "location": "52.206111,0.132969",
        "phone": "01223 355909",
        "pricerange": "mahal",
        "postcode": "C.B 1, 1 D.G",
        "type": "restoran",
        "id": "19172",
        "name": "hk fusion"
    },
    {
        "address": "King Street City Centre",
        "area": "pusat",
        "food": "turki",
        "location": "52.207312,0.124201",
        "phone": "01223 500005",
        "pricerange": "menengah",
        "postcode": "C.B 1, 1 L.N",
        "type": "restoran",
        "id": "19178",
        "name": "efes restaurant"
    },
    {
        "address": "Regent Street City Centre",
        "area": "pusat",
        "food": "amerika utara",
        "location": "52.20103,0.126023",
        "phone": "01223 312598",
        "pricerange": "mahal",
        "postcode": "C.B 2, 1 A.B",
        "type": "restoran",
        "id": "19209",
        "name": "gourmet burger kitchen"
    },
    {
        "address": "12 Market Hill City Centre",
        "area": "pusat",
        "food": "italia",
        "location": "52.205442,0.119706",
        "phone": "01223 350106",
        "pricerange": "mahal",
        "postcode": "C.B 2, 3 N.J",
        "type": "restoran",
        "id": "19239",
        "name": "don pasquale pizzeria"
    },
    {
        "address": "1 Kings Parade",
        "area": "pusat",
        "food": "inggris",
        "location": "52.20439,0.11784",
        "phone": "01223 359506",
        "pricerange": "mahal",
        "postcode": "C.B 2, 1 S.J",
        "type": "restoran",
        "id": "6941",
        "name": "the cambridge chop house"
    },
    {
        "address": "52 Mill Road City Centre",
        "area": "pusat",
        "food": "oriental asia",
        "location": "52.200422,0.135784",
        "phone": "01223 311911",
        "pricerange": "mahal",
        "postcode": "C.B 1, 2 A.S",
        "type": "restoran",
        "id": "19181",
        "name": "kymmoy"
    },
    {
        "address": "43 High Street Cherry Hinton Cherry Hinton",
        "area": "timur",
        "food": "india",
        "location": "52.186739,0.173048",
        "phone": "01223 249955",
        "pricerange": "mahal",
        "postcode": "C.B 1, 9 H.X",
        "type": "restoran",
        "id": "19198",
        "name": "sitar tandoori"
    },
    {
        "address": "84 Regent Street City Centre",
        "area": "pusat",
        "food": "mediterania",
        "location": "52.200187,0.126407",
        "phone": "01223 307581",
        "pricerange": "mahal",
        "postcode": "C.B 2, 1 D.P",
        "type": "restoran",
        "id": "19217",
        "name": "shiraz restaurant"
    },
    {
        "address": "Midsummer Common",
        "area": "pusat",
        "food": "inggris",
        "location": "52.21251,0.12774",
        "phone": "01223 369299",
        "pricerange": "mahal",
        "postcode": "C.B 4, 1 H.A",
        "type": "restoran",
        "id": "508",
        "name": "midsummer house restaurant"
    },
    {
        "address": "Bridge Street City Centre",
        "area": "pusat",
        "food": "perancis",
        "location": "52.209028,0.118296",
        "phone": "01223 311053",
        "pricerange": "mahal",
        "postcode": "C.B 2, 1 U.F",
        "type": "restoran",
        "id": "19230",
        "name": "cote"
    },
    {
        "address": "32 Bridge Street City Centre",
        "area": "pusat",
        "food": "italia",
        "location": "52.209632,0.117213",
        "phone": "01223 448620",
        "pricerange": "mahal",
        "postcode": "C.B 2, 1 U.J",
        "type": "restoran",
        "id": "19234",
        "name": "caffe uno"
    },
    {
        "address": "17 Hills Road City Centre",
        "area": "pusat",
        "food": "cina",
        "location": "52.197154,0.129511",
        "phone": "01223 358899",
        "pricerange": "mahal",
        "postcode": "C.B 2, 1 N.W",
        "type": "restoran",
        "id": "19222",
        "name": "sesame restaurant and bar"
    },
    {
        "address": "24 Green Street City Centre",
        "area": "pusat",
        "food": "thailand",
        "location": "52.206504,0.119157",
        "phone": "01223 354382",
        "pricerange": "mahal",
        "postcode": "C.B 2, 3 J.X",
        "type": "restoran",
        "id": "19236",
        "name": "bangkok city"
    }
]